<?xml version="1.0" encoding="UTF-8"?>
<kml xmlns="http://www.opengis.net/kml/2.2">
  <Document>
    <name>峇里島租機車據點 by gobaligo</name>
    <description>峇里島各熱門觀光區機車租賃店，含日租價格參考、車款與注意事項 | 最後更新：2026-05</description>

    <Folder>
      <name>庫塔 / 雷吉安 / 土班 Kuta &amp; Legian &amp; Tuban</name>
      <Placemark>
        <name>Poppies Lane I Bike Rental</name>
        <description><![CDATA[🛵 機車出租<br>🗺️ Poppies Lane I, Kuta<br>💰 日租約 Rp 70,000–90,000<br>🕐 每日 08:00–21:00<br>庫塔巷弄熱門租車點，步行到海灘5分鐘<br><a href="https://www.google.com/maps/search/?api=1&query=-8.7210,115.1700" target="_blank" rel="noopener">Google Maps</a>]]></description>
        <Point><coordinates>115.1700,-8.7210,0</coordinates></Point>
      </Placemark>
      <Placemark>
        <name>Poppies Lane II Scooter Hire</name>
        <description><![CDATA[🛵 機車出租<br>🗺️ Poppies Lane II, Kuta<br>💰 日租約 Rp 70,000–90,000<br>🕐 每日 08:00–21:00<br><a href="https://www.google.com/maps/search/?api=1&query=-8.7220,115.1710" target="_blank" rel="noopener">Google Maps</a>]]></description>
        <Point><coordinates>115.1710,-8.7220,0</coordinates></Point>
      </Placemark>
      <Placemark>
        <name>Kuta Square Scooter Rental</name>
        <description><![CDATA[🛵 機車出租<br>🗺️ Jl. Bakung Sari, Kuta<br>💰 日租約 Rp 70,000–90,000<br>🕐 每日 08:00–20:00<br>近 Kuta Square 購物中心<br><a href="https://www.google.com/maps/search/?api=1&query=-8.7230,115.1720" target="_blank" rel="noopener">Google Maps</a>]]></description>
        <Point><coordinates>115.1720,-8.7230,0</coordinates></Point>
      </Placemark>
      <Placemark>
        <name>Jl. Legian Motorbike Hire</name>
        <description><![CDATA[🛵 機車出租<br>🗺️ Jl. Legian, Legian<br>💰 日租約 Rp 65,000–85,000<br>🕐 每日 08:00–21:00<br>Honda Beat / Vario / Scoopy 可選<br><a href="https://www.google.com/maps/search/?api=1&query=-8.7135,115.1665" target="_blank" rel="noopener">Google Maps</a>]]></description>
        <Point><coordinates>115.1665,-8.7135,0</coordinates></Point>
      </Placemark>
      <Placemark>
        <name>Jl. Melasti Rental</name>
        <description><![CDATA[🛵 機車出租<br>🗺️ Jl. Melasti, Legian<br>💰 日租約 Rp 65,000–80,000<br>🕐 每日 08:00–20:00<br><a href="https://www.google.com/maps/search/?api=1&query=-8.7100,115.1650" target="_blank" rel="noopener">Google Maps</a>]]></description>
        <Point><coordinates>115.1650,-8.7100,0</coordinates></Point>
      </Placemark>
      <Placemark>
        <name>Sunset Road Motorbike Rental</name>
        <description><![CDATA[🛵 機車出租<br>🗺️ Jl. Sunset Road, Kuta<br>💰 日租約 Rp 70,000–100,000<br>🕐 每日 08:00–20:00<br>Honda PCX / NMAX 大型踏板車亦有<br><a href="https://www.google.com/maps/search/?api=1&query=-8.7072,115.1839" target="_blank" rel="noopener">Google Maps</a>]]></description>
        <Point><coordinates>115.1839,-8.7072,0</coordinates></Point>
      </Placemark>
      <Placemark>
        <name>Tuban Airport Road Rental</name>
        <description><![CDATA[🛵 機車出租<br>🗺️ Jl. Raya Tuban（機場附近）<br>💰 日租約 Rp 65,000–85,000<br>🕐 每日 08:00–20:00<br>近國際機場，抵達即可取車<br><a href="https://www.google.com/maps/search/?api=1&query=-8.7430,115.1720" target="_blank" rel="noopener">Google Maps</a>]]></description>
        <Point><coordinates>115.1720,-8.7430,0</coordinates></Point>
      </Placemark>
      <Placemark>
        <name>Benesari Lane Scooter</name>
        <description><![CDATA[🛵 機車出租<br>🗺️ Jl. Benesari, Kuta<br>💰 日租約 Rp 65,000–85,000<br>🕐 每日 08:00–20:00<br><a href="https://www.google.com/maps/search/?api=1&query=-8.7190,115.1680" target="_blank" rel="noopener">Google Maps</a>]]></description>
        <Point><coordinates>115.1680,-8.7190,0</coordinates></Point>
      </Placemark>
      <Placemark>
        <name>Pantai Kuta Bike Shop</name>
        <description><![CDATA[🛵 機車出租<br>🗺️ Jl. Pantai Kuta（庫塔海灘路）<br>💰 日租約 Rp 70,000–90,000<br>🕐 每日 07:00–21:00<br>海灘正對面，衝浪後直接取車<br><a href="https://www.google.com/maps/search/?api=1&query=-8.7185,115.1648" target="_blank" rel="noopener">Google Maps</a>]]></description>
        <Point><coordinates>115.1648,-8.7185,0</coordinates></Point>
      </Placemark>
    </Folder>

    <Folder>
      <name>水明漾 Seminyak</name>
      <Placemark>
        <name>Seminyak Square Bike Rental</name>
        <description><![CDATA[🛵 機車出租<br>🗺️ Jl. Raya Seminyak<br>💰 日租約 Rp 75,000–95,000<br>🕐 每日 08:00–20:00<br>近 Seminyak Square<br><a href="https://www.google.com/maps/search/?api=1&query=-8.6897,115.1612" target="_blank" rel="noopener">Google Maps</a>]]></description>
        <Point><coordinates>115.1612,-8.6897,0</coordinates></Point>
      </Placemark>
      <Placemark>
        <name>Kayu Aya Scooter Hire</name>
        <description><![CDATA[🛵 機車出租<br>🗺️ Jl. Kayu Aya (Oberoi), Seminyak<br>💰 日租約 Rp 80,000–100,000<br>🕐 每日 08:00–19:00<br><a href="https://www.google.com/maps/search/?api=1&query=-8.6840,115.1580" target="_blank" rel="noopener">Google Maps</a>]]></description>
        <Point><coordinates>115.1580,-8.6840,0</coordinates></Point>
      </Placemark>
      <Placemark>
        <name>Petitenget Bike Rental</name>
        <description><![CDATA[🛵 機車出租<br>🗺️ Jl. Petitenget, Seminyak<br>💰 日租約 Rp 75,000–90,000<br>🕐 每日 08:00–20:00<br><a href="https://www.google.com/maps/search/?api=1&query=-8.6780,115.1560" target="_blank" rel="noopener">Google Maps</a>]]></description>
        <Point><coordinates>115.1560,-8.6780,0</coordinates></Point>
      </Placemark>
      <Placemark>
        <name>Laksmana (Eat Street) Motorbike</name>
        <description><![CDATA[🛵 機車出租<br>🗺️ Jl. Laksmana, Seminyak<br>💰 日租約 Rp 75,000–95,000<br>🕐 每日 08:00–19:00<br>近 Eat Street 美食街<br><a href="https://www.google.com/maps/search/?api=1&query=-8.6860,115.1600" target="_blank" rel="noopener">Google Maps</a>]]></description>
        <Point><coordinates>115.1600,-8.6860,0</coordinates></Point>
      </Placemark>
      <Placemark>
        <name>Double Six Scooter Rental</name>
        <description><![CDATA[🛵 機車出租<br>🗺️ 近 Double Six Beach, Seminyak<br>💰 日租約 Rp 75,000–90,000<br>🕐 每日 08:00–20:00<br><a href="https://www.google.com/maps/search/?api=1&query=-8.6930,115.1590" target="_blank" rel="noopener">Google Maps</a>]]></description>
        <Point><coordinates>115.1590,-8.6930,0</coordinates></Point>
      </Placemark>
    </Folder>

    <Folder>
      <name>克羅博坎 / 烏瑪拉斯 Kerobokan &amp; Umalas</name>
      <Placemark>
        <name>Kerobokan Bike Rental</name>
        <description><![CDATA[🛵 機車出租<br>🗺️ Jl. Raya Kerobokan<br>💰 日租約 Rp 70,000–85,000<br>🕐 每日 08:00–19:00<br>水明漾與長谷之間的在地生活區<br><a href="https://www.google.com/maps/search/?api=1&query=-8.6730,115.1630" target="_blank" rel="noopener">Google Maps</a>]]></description>
        <Point><coordinates>115.1630,-8.6730,0</coordinates></Point>
      </Placemark>
      <Placemark>
        <name>Umalas Scooter Hire</name>
        <description><![CDATA[🛵 機車出租<br>🗺️ Jl. Umalas, Kerobokan<br>💰 日租約 Rp 70,000–85,000<br>🕐 每日 08:00–19:00<br>安靜住宅區，Villa 租客常用<br><a href="https://www.google.com/maps/search/?api=1&query=-8.6680,115.1580" target="_blank" rel="noopener">Google Maps</a>]]></description>
        <Point><coordinates>115.1580,-8.6680,0</coordinates></Point>
      </Placemark>
      <Placemark>
        <name>Jl. Taman Sari Bike Shop</name>
        <description><![CDATA[🛵 機車出租<br>🗺️ Jl. Taman Sari, Kerobokan<br>💰 日租約 Rp 65,000–80,000<br>🕐 每日 08:00–18:00<br><a href="https://www.google.com/maps/search/?api=1&query=-8.6700,115.1700" target="_blank" rel="noopener">Google Maps</a>]]></description>
        <Point><coordinates>115.1700,-8.6700,0</coordinates></Point>
      </Placemark>
    </Folder>

    <Folder>
      <name>長谷 / Pererenan / Seseh Canggu Area</name>
      <Placemark>
        <name>Batu Bolong Scooter Rental</name>
        <description><![CDATA[🛵 機車出租<br>🗺️ Jl. Batu Bolong, Canggu<br>💰 日租約 Rp 70,000–90,000<br>🕐 每日 08:00–20:00<br>長谷最熱鬧街道<br><a href="https://www.google.com/maps/search/?api=1&query=-8.6478,115.1385" target="_blank" rel="noopener">Google Maps</a>]]></description>
        <Point><coordinates>115.1385,-8.6478,0</coordinates></Point>
      </Placemark>
      <Placemark>
        <name>Berawa Bike Rental</name>
        <description><![CDATA[🛵 機車出租<br>🗺️ Jl. Pantai Berawa, Canggu<br>💰 日租約 Rp 65,000–85,000 / 月租 Rp 650,000起<br>🕐 每日 08:00–20:00<br>數位遊牧族長租首選<br><a href="https://www.google.com/maps/search/?api=1&query=-8.6520,115.1310" target="_blank" rel="noopener">Google Maps</a>]]></description>
        <Point><coordinates>115.1310,-8.6520,0</coordinates></Point>
      </Placemark>
      <Placemark>
        <name>Echo Beach Motorbike Hire</name>
        <description><![CDATA[🛵 機車出租<br>🗺️ Jl. Batu Mejan, Echo Beach<br>💰 日租約 Rp 70,000–90,000<br>🕐 每日 08:00–19:00<br><a href="https://www.google.com/maps/search/?api=1&query=-8.6430,115.1270" target="_blank" rel="noopener">Google Maps</a>]]></description>
        <Point><coordinates>115.1270,-8.6430,0</coordinates></Point>
      </Placemark>
      <Placemark>
        <name>Pererenan Scooter Rental</name>
        <description><![CDATA[🛵 機車出租<br>🗺️ Jl. Raya Pererenan<br>💰 日租約 Rp 65,000–80,000<br>🕐 每日 08:00–19:00<br>長谷北邊新興區，稻田咖啡館密集<br><a href="https://www.google.com/maps/search/?api=1&query=-8.6380,115.1220" target="_blank" rel="noopener">Google Maps</a>]]></description>
        <Point><coordinates>115.1220,-8.6380,0</coordinates></Point>
      </Placemark>
      <Placemark>
        <name>Raya Canggu Bike Shop</name>
        <description><![CDATA[🛵 機車出租<br>🗺️ Jl. Raya Canggu<br>💰 日租約 Rp 65,000–85,000<br>🕐 每日 08:00–20:00<br><a href="https://www.google.com/maps/search/?api=1&query=-8.6500,115.1350" target="_blank" rel="noopener">Google Maps</a>]]></description>
        <Point><coordinates>115.1350,-8.6500,0</coordinates></Point>
      </Placemark>
      <Placemark>
        <name>Seseh Village Motorbike</name>
        <description><![CDATA[🛵 機車出租<br>🗺️ Jl. Raya Seseh（長谷最北端）<br>💰 日租約 Rp 60,000–75,000<br>🕐 每日 08:00–18:00<br>安靜海灘村莊，租金親民<br><a href="https://www.google.com/maps/search/?api=1&query=-8.6280,115.1140" target="_blank" rel="noopener">Google Maps</a>]]></description>
        <Point><coordinates>115.1140,-8.6280,0</coordinates></Point>
      </Placemark>
      <Placemark>
        <name>Old Man's — Canggu Surf Area Rental</name>
        <description><![CDATA[🛵 機車出租<br>🗺️ 近 Old Man's Bar, Canggu<br>💰 日租約 Rp 70,000–90,000<br>🕐 每日 08:00–20:00<br>衝浪客聚集地，騎車遊覽稻田超方便<br><a href="https://www.google.com/maps/search/?api=1&query=-8.6460,115.1330" target="_blank" rel="noopener">Google Maps</a>]]></description>
        <Point><coordinates>115.1330,-8.6460,0</coordinates></Point>
      </Placemark>
    </Folder>

    <Folder>
      <name>烏布及周邊村落 Ubud &amp; Surroundings</name>
      <Placemark>
        <name>Monkey Forest Road Rental</name>
        <description><![CDATA[🛵 機車出租<br>🗺️ Jl. Monkey Forest, Ubud<br>💰 日租約 Rp 60,000–80,000<br>🕐 每日 08:00–19:00<br><a href="https://www.google.com/maps/search/?api=1&query=-8.5160,115.2625" target="_blank" rel="noopener">Google Maps</a>]]></description>
        <Point><coordinates>115.2625,-8.5160,0</coordinates></Point>
      </Placemark>
      <Placemark>
        <name>Raya Ubud Motorbike Hire</name>
        <description><![CDATA[🛵 機車出租<br>🗺️ Jl. Raya Ubud（烏布主街）<br>💰 日租約 Rp 60,000–80,000<br>🕐 每日 08:00–20:00<br><a href="https://www.google.com/maps/search/?api=1&query=-8.5069,115.2622" target="_blank" rel="noopener">Google Maps</a>]]></description>
        <Point><coordinates>115.2622,-8.5069,0</coordinates></Point>
      </Placemark>
      <Placemark>
        <name>Hanoman Street Scooter</name>
        <description><![CDATA[🛵 機車出租<br>🗺️ Jl. Hanoman, Ubud<br>💰 日租約 Rp 60,000–75,000<br>🕐 每日 08:00–19:00<br><a href="https://www.google.com/maps/search/?api=1&query=-8.5090,115.2650" target="_blank" rel="noopener">Google Maps</a>]]></description>
        <Point><coordinates>115.2650,-8.5090,0</coordinates></Point>
      </Placemark>
      <Placemark>
        <name>Campuhan Bike Rental</name>
        <description><![CDATA[🛵 機車出租<br>🗺️ Jl. Raya Sanggingan, Campuhan<br>💰 日租約 Rp 60,000–75,000<br>🕐 每日 08:00–19:00<br>近 Campuhan Ridge Walk 登山口<br><a href="https://www.google.com/maps/search/?api=1&query=-8.5050,115.2540" target="_blank" rel="noopener">Google Maps</a>]]></description>
        <Point><coordinates>115.2540,-8.5050,0</coordinates></Point>
      </Placemark>
      <Placemark>
        <name>Nyuh Kuning Scooter Hire</name>
        <description><![CDATA[🛵 機車出租<br>🗺️ Jl. Nyuh Kuning, Ubud<br>💰 日租約 Rp 55,000–75,000<br>🕐 每日 08:00–18:00<br>烏布南邊，近稻田步道<br><a href="https://www.google.com/maps/search/?api=1&query=-8.5240,115.2600" target="_blank" rel="noopener">Google Maps</a>]]></description>
        <Point><coordinates>115.2600,-8.5240,0</coordinates></Point>
      </Placemark>
      <Placemark>
        <name>Tegallalang Bike Rental</name>
        <description><![CDATA[🛵 機車出租<br>🗺️ Jl. Raya Tegallalang（梯田附近）<br>💰 日租約 Rp 60,000–80,000<br>🕐 每日 08:00–18:00<br>巴里崇特梯田景觀旁<br><a href="https://www.google.com/maps/search/?api=1&query=-8.4330,115.2780" target="_blank" rel="noopener">Google Maps</a>]]></description>
        <Point><coordinates>115.2780,-8.4330,0</coordinates></Point>
      </Placemark>
      <Placemark>
        <name>Penestanan Scooter Rental</name>
        <description><![CDATA[🛵 機車出租<br>🗺️ Jl. Raya Penestanan, Ubud<br>💰 日租約 Rp 55,000–75,000<br>🕐 每日 08:00–18:00<br>藝術家村聚集地，烏布西邊<br><a href="https://www.google.com/maps/search/?api=1&query=-8.5040,115.2500" target="_blank" rel="noopener">Google Maps</a>]]></description>
        <Point><coordinates>115.2500,-8.5040,0</coordinates></Point>
      </Placemark>
      <Placemark>
        <name>Mas Village Bike Hire</name>
        <description><![CDATA[🛵 機車出租<br>🗺️ Jl. Raya Mas（木雕村）<br>💰 日租約 Rp 55,000–70,000<br>🕐 每日 08:00–18:00<br>烏布往南，木雕工藝品店林立<br><a href="https://www.google.com/maps/search/?api=1&query=-8.5430,115.2610" target="_blank" rel="noopener">Google Maps</a>]]></description>
        <Point><coordinates>115.2610,-8.5430,0</coordinates></Point>
      </Placemark>
      <Placemark>
        <name>Payangan Motorbike Rental</name>
        <description><![CDATA[🛵 機車出租<br>🗺️ Jl. Raya Payangan（烏布北部）<br>💰 日租約 Rp 55,000–70,000<br>🕐 每日 08:00–17:00<br>往基安扎尼湖（Danau Batur）途中<br><a href="https://www.google.com/maps/search/?api=1&query=-8.4580,115.2660" target="_blank" rel="noopener">Google Maps</a>]]></description>
        <Point><coordinates>115.2660,-8.4580,0</coordinates></Point>
      </Placemark>
    </Folder>

    <Folder>
      <name>沙努爾 Sanur</name>
      <Placemark>
        <name>Danau Tamblingan Rental</name>
        <description><![CDATA[🛵 機車出租<br>🗺️ Jl. Danau Tamblingan, Sanur<br>💰 日租約 Rp 65,000–85,000<br>🕐 每日 08:00–19:00<br><a href="https://www.google.com/maps/search/?api=1&query=-8.6971,115.2568" target="_blank" rel="noopener">Google Maps</a>]]></description>
        <Point><coordinates>115.2568,-8.6971,0</coordinates></Point>
      </Placemark>
      <Placemark>
        <name>Sindhu Beach Bike Hire</name>
        <description><![CDATA[🛵 機車出租<br>🗺️ Jl. Pantai Sindhu, Sanur<br>💰 日租約 Rp 65,000–80,000<br>🕐 每日 08:00–19:00<br><a href="https://www.google.com/maps/search/?api=1&query=-8.7024,115.2580" target="_blank" rel="noopener">Google Maps</a>]]></description>
        <Point><coordinates>115.2580,-8.7024,0</coordinates></Point>
      </Placemark>
      <Placemark>
        <name>Sanur Bypass Motorbike Rental</name>
        <description><![CDATA[🛵 機車出租<br>🗺️ Jl. By Pass Ngurah Rai, Sanur<br>💰 日租約 Rp 60,000–80,000<br>🕐 每日 08:00–19:00<br><a href="https://www.google.com/maps/search/?api=1&query=-8.7050,115.2500" target="_blank" rel="noopener">Google Maps</a>]]></description>
        <Point><coordinates>115.2500,-8.7050,0</coordinates></Point>
      </Placemark>
      <Placemark>
        <name>Danau Poso Scooter</name>
        <description><![CDATA[🛵 機車出租<br>🗺️ Jl. Danau Poso, Sanur<br>💰 日租約 Rp 60,000–80,000<br>🕐 每日 08:00–18:00<br><a href="https://www.google.com/maps/search/?api=1&query=-8.6940,115.2600" target="_blank" rel="noopener">Google Maps</a>]]></description>
        <Point><coordinates>115.2600,-8.6940,0</coordinates></Point>
      </Placemark>
    </Folder>

    <Folder>
      <name>烏魯瓦圖 / 布基半島 Uluwatu &amp; Bukit</name>
      <Placemark>
        <name>Uluwatu Temple Road Rental</name>
        <description><![CDATA[🛵 機車出租<br>🗺️ Jl. Uluwatu, Pecatu<br>💰 日租約 Rp 70,000–90,000<br>🕐 每日 08:00–19:00<br><a href="https://www.google.com/maps/search/?api=1&query=-8.8220,115.1180" target="_blank" rel="noopener">Google Maps</a>]]></description>
        <Point><coordinates>115.1180,-8.8220,0</coordinates></Point>
      </Placemark>
      <Placemark>
        <name>Padang Padang Bike Hire</name>
        <description><![CDATA[🛵 機車出租<br>🗺️ 近 Padang Padang Beach<br>💰 日租約 Rp 70,000–85,000<br>🕐 每日 08:00–18:00<br><a href="https://www.google.com/maps/search/?api=1&query=-8.8100,115.1130" target="_blank" rel="noopener">Google Maps</a>]]></description>
        <Point><coordinates>115.1130,-8.8100,0</coordinates></Point>
      </Placemark>
      <Placemark>
        <name>Bingin Cliff Scooter Rental</name>
        <description><![CDATA[🛵 機車出租<br>🗺️ 近 Bingin Beach<br>💰 日租約 Rp 70,000–90,000<br>🕐 每日 08:00–18:00<br><a href="https://www.google.com/maps/search/?api=1&query=-8.8030,115.1090" target="_blank" rel="noopener">Google Maps</a>]]></description>
        <Point><coordinates>115.1090,-8.8030,0</coordinates></Point>
      </Placemark>
      <Placemark>
        <name>Balangan Beach Rental</name>
        <description><![CDATA[🛵 機車出租<br>🗺️ 近 Balangan Beach<br>💰 日租約 Rp 65,000–85,000<br>🕐 每日 08:00–18:00<br><a href="https://www.google.com/maps/search/?api=1&query=-8.7980,115.1080" target="_blank" rel="noopener">Google Maps</a>]]></description>
        <Point><coordinates>115.1080,-8.7980,0</coordinates></Point>
      </Placemark>
      <Placemark>
        <name>Pecatu Indah Bike Shop</name>
        <description><![CDATA[🛵 機車出租<br>🗺️ Jl. Raya Uluwatu, Pecatu<br>💰 日租約 Rp 70,000–90,000<br>🕐 每日 08:00–19:00<br><a href="https://www.google.com/maps/search/?api=1&query=-8.8050,115.1200" target="_blank" rel="noopener">Google Maps</a>]]></description>
        <Point><coordinates>115.1200,-8.8050,0</coordinates></Point>
      </Placemark>
      <Placemark>
        <name>Nyang Nyang Beach Rental</name>
        <description><![CDATA[🛵 機車出租<br>🗺️ 近 Nyang Nyang Beach, Uluwatu<br>💰 日租約 Rp 70,000–85,000<br>🕐 每日 08:00–18:00<br>秘境海灘入口附近<br><a href="https://www.google.com/maps/search/?api=1&query=-8.8280,115.1260" target="_blank" rel="noopener">Google Maps</a>]]></description>
        <Point><coordinates>115.1260,-8.8280,0</coordinates></Point>
      </Placemark>
      <Placemark>
        <name>Dreamland Beach Scooter</name>
        <description><![CDATA[🛵 機車出租<br>🗺️ New Kuta / Dreamland Beach<br>💰 日租約 Rp 65,000–85,000<br>🕐 每日 08:00–18:00<br><a href="https://www.google.com/maps/search/?api=1&query=-8.7920,115.1050" target="_blank" rel="noopener">Google Maps</a>]]></description>
        <Point><coordinates>115.1050,-8.7920,0</coordinates></Point>
      </Placemark>
    </Folder>

    <Folder>
      <name>金巴蘭 Jimbaran</name>
      <Placemark>
        <name>Jimbaran Bay Bike Rental</name>
        <description><![CDATA[🛵 機車出租<br>🗺️ Jl. Bukit Permai, Jimbaran<br>💰 日租約 Rp 65,000–85,000<br>🕐 每日 08:00–19:00<br>近海鮮餐廳區<br><a href="https://www.google.com/maps/search/?api=1&query=-8.7880,115.1500" target="_blank" rel="noopener">Google Maps</a>]]></description>
        <Point><coordinates>115.1500,-8.7880,0</coordinates></Point>
      </Placemark>
      <Placemark>
        <name>Jimbaran Market Scooter</name>
        <description><![CDATA[🛵 機車出租<br>🗺️ 近 Jimbaran 魚市場<br>💰 日租約 Rp 65,000–80,000<br>🕐 每日 08:00–18:00<br><a href="https://www.google.com/maps/search/?api=1&query=-8.7800,115.1540" target="_blank" rel="noopener">Google Maps</a>]]></description>
        <Point><coordinates>115.1540,-8.7800,0</coordinates></Point>
      </Placemark>
      <Placemark>
        <name>Kedonganan Bike Hire</name>
        <description><![CDATA[🛵 機車出租<br>🗺️ Jl. Kedonganan, Jimbaran<br>💰 日租約 Rp 60,000–80,000<br>🕐 每日 08:00–18:00<br>金巴蘭北側漁村<br><a href="https://www.google.com/maps/search/?api=1&query=-8.7720,115.1620" target="_blank" rel="noopener">Google Maps</a>]]></description>
        <Point><coordinates>115.1620,-8.7720,0</coordinates></Point>
      </Placemark>
    </Folder>

    <Folder>
      <name>努沙杜瓦 / 丹戎貝諾阿 Nusa Dua &amp; Tanjung Benoa</name>
      <Placemark>
        <name>Nusa Dua Bypass Rental</name>
        <description><![CDATA[🛵 機車出租<br>🗺️ Jl. By Pass Ngurah Rai, Nusa Dua<br>💰 日租約 Rp 70,000–90,000<br>🕐 每日 08:00–19:00<br><a href="https://www.google.com/maps/search/?api=1&query=-8.8004,115.2320" target="_blank" rel="noopener">Google Maps</a>]]></description>
        <Point><coordinates>115.2320,-8.8004,0</coordinates></Point>
      </Placemark>
      <Placemark>
        <name>Tanjung Benoa Scooter Hire</name>
        <description><![CDATA[🛵 機車出租<br>🗺️ Jl. Pratama, Tanjung Benoa<br>💰 日租約 Rp 65,000–85,000<br>🕐 每日 08:00–19:00<br>近水上活動中心<br><a href="https://www.google.com/maps/search/?api=1&query=-8.7650,115.2380" target="_blank" rel="noopener">Google Maps</a>]]></description>
        <Point><coordinates>115.2380,-8.7650,0</coordinates></Point>
      </Placemark>
      <Placemark>
        <name>BTDC Nusa Dua Bike Rental</name>
        <description><![CDATA[🛵 機車出租<br>🗺️ BTDC 度假村區外圍, Nusa Dua<br>💰 日租約 Rp 70,000–90,000<br>🕐 每日 08:00–18:00<br><a href="https://www.google.com/maps/search/?api=1&query=-8.8100,115.2280" target="_blank" rel="noopener">Google Maps</a>]]></description>
        <Point><coordinates>115.2280,-8.8100,0</coordinates></Point>
      </Placemark>
    </Folder>

    <Folder>
      <name>登巴薩 Denpasar</name>
      <Placemark>
        <name>Teuku Umar Bike Rental</name>
        <description><![CDATA[🛵 機車出租<br>🗺️ Jl. Teuku Umar, Denpasar<br>💰 日租約 Rp 55,000–75,000<br>🕐 每日 08:00–18:00<br><a href="https://www.google.com/maps/search/?api=1&query=-8.6665,115.2104" target="_blank" rel="noopener">Google Maps</a>]]></description>
        <Point><coordinates>115.2104,-8.6665,0</coordinates></Point>
      </Placemark>
      <Placemark>
        <name>Renon Motorbike Hire</name>
        <description><![CDATA[🛵 機車出租<br>🗺️ Jl. Raya Puputan, Renon, Denpasar<br>💰 日租約 Rp 55,000–70,000<br>🕐 每日 08:00–17:00<br><a href="https://www.google.com/maps/search/?api=1&query=-8.6770,115.2300" target="_blank" rel="noopener">Google Maps</a>]]></description>
        <Point><coordinates>115.2300,-8.6770,0</coordinates></Point>
      </Placemark>
      <Placemark>
        <name>Jl. Diponegoro Scooter</name>
        <description><![CDATA[🛵 機車出租<br>🗺️ Jl. Diponegoro, Denpasar<br>💰 日租約 Rp 55,000–70,000<br>🕐 每日 08:00–17:00<br><a href="https://www.google.com/maps/search/?api=1&query=-8.6600,115.2170" target="_blank" rel="noopener">Google Maps</a>]]></description>
        <Point><coordinates>115.2170,-8.6600,0</coordinates></Point>
      </Placemark>
      <Placemark>
        <name>Gatot Subroto Bike Rental</name>
        <description><![CDATA[🛵 機車出租<br>🗺️ Jl. Gatot Subroto, Denpasar<br>💰 日租約 Rp 55,000–70,000<br>🕐 每日 08:00–17:00<br><a href="https://www.google.com/maps/search/?api=1&query=-8.6590,115.2240" target="_blank" rel="noopener">Google Maps</a>]]></description>
        <Point><coordinates>115.2240,-8.6590,0</coordinates></Point>
      </Placemark>
    </Folder>

    <Folder>
      <name>田納 / 丹戎石 Tanah Lot &amp; Tabanan</name>
      <Placemark>
        <name>Tanah Lot Temple Bike Rental</name>
        <description><![CDATA[🛵 機車出租<br>🗺️ 近 Tanah Lot 海神廟停車場<br>💰 日租約 Rp 65,000–80,000<br>🕐 每日 08:00–19:00<br>看日落後騎車探索周邊稻田<br><a href="https://www.google.com/maps/search/?api=1&query=-8.6209,115.0868" target="_blank" rel="noopener">Google Maps</a>]]></description>
        <Point><coordinates>115.0868,-8.6209,0</coordinates></Point>
      </Placemark>
      <Placemark>
        <name>Tabanan Town Motorbike</name>
        <description><![CDATA[🛵 機車出租<br>🗺️ Jl. Pahlawan, Tabanan<br>💰 日租約 Rp 55,000–70,000<br>🕐 每日 08:00–17:00<br>田納市區，前往梯田、Jatiluwih必經<br><a href="https://www.google.com/maps/search/?api=1&query=-8.5400,115.1250" target="_blank" rel="noopener">Google Maps</a>]]></description>
        <Point><coordinates>115.1250,-8.5400,0</coordinates></Point>
      </Placemark>
      <Placemark>
        <name>Jatiluwih Rice Terrace Rental</name>
        <description><![CDATA[🛵 機車出租<br>🗺️ 近 Jatiluwih 世界遺產梯田<br>💰 日租約 Rp 60,000–75,000<br>🕐 每日 08:00–17:00<br>UNESCO 梯田區入口附近<br><a href="https://www.google.com/maps/search/?api=1&query=-8.3980,115.1330" target="_blank" rel="noopener">Google Maps</a>]]></description>
        <Point><coordinates>115.1330,-8.3980,0</coordinates></Point>
      </Placemark>
      <Placemark>
        <name>Medewi Surf Bike Hire</name>
        <description><![CDATA[🛵 機車出租<br>🗺️ 近 Medewi Beach（西峇里衝浪點）<br>💰 日租約 Rp 60,000–75,000<br>🕐 每日 07:00–18:00<br>西峇里長浪衝浪名地<br><a href="https://www.google.com/maps/search/?api=1&query=-8.4820,114.8370" target="_blank" rel="noopener">Google Maps</a>]]></description>
        <Point><coordinates>114.8370,-8.4820,0</coordinates></Point>
      </Placemark>
    </Folder>

    <Folder>
      <name>金塔馬尼 / 巴圖爾火山 Kintamani &amp; Batur</name>
      <Placemark>
        <name>Kintamani Viewpoint Bike Rental</name>
        <description><![CDATA[🛵 機車出租<br>🗺️ Jl. Raya Kintamani（火山口觀景台旁）<br>💰 日租約 Rp 65,000–80,000<br>🕐 每日 07:00–17:00<br>騎車繞巴圖爾湖一圈約40分鐘<br><a href="https://www.google.com/maps/search/?api=1&query=-8.2380,115.3750" target="_blank" rel="noopener">Google Maps</a>]]></description>
        <Point><coordinates>115.3750,-8.2380,0</coordinates></Point>
      </Placemark>
      <Placemark>
        <name>Toya Bungkah Hot Spring Rental</name>
        <description><![CDATA[🛵 機車出租<br>🗺️ Toya Bungkah Village（巴圖爾湖畔溫泉村）<br>💰 日租約 Rp 60,000–75,000<br>🕐 每日 07:00–17:00<br>泡完溫泉後騎車上火山口<br><a href="https://www.google.com/maps/search/?api=1&query=-8.2550,115.4010" target="_blank" rel="noopener">Google Maps</a>]]></description>
        <Point><coordinates>115.4010,-8.2550,0</coordinates></Point>
      </Placemark>
      <Placemark>
        <name>Bangli Town Scooter</name>
        <description><![CDATA[🛵 機車出租<br>🗺️ Jl. Merdeka, Bangli<br>💰 日租約 Rp 55,000–70,000<br>🕐 每日 08:00–17:00<br>前往貝薩基母廟（Pura Besakih）中途<br><a href="https://www.google.com/maps/search/?api=1&query=-8.4570,115.3560" target="_blank" rel="noopener">Google Maps</a>]]></description>
        <Point><coordinates>115.3560,-8.4570,0</coordinates></Point>
      </Placemark>
    </Folder>

    <Folder>
      <name>吉安雅 / 蘇卡瓦蒂 Gianyar &amp; Sukawati</name>
      <Placemark>
        <name>Gianyar Night Market Bike Rental</name>
        <description><![CDATA[🛵 機車出租<br>🗺️ 近 Gianyar Night Market（吉安雅夜市旁）<br>💰 日租約 Rp 55,000–70,000<br>🕐 每日 08:00–17:00<br>峇里島最道地夜市就在附近<br><a href="https://www.google.com/maps/search/?api=1&query=-8.5360,115.3330" target="_blank" rel="noopener">Google Maps</a>]]></description>
        <Point><coordinates>115.3330,-8.5360,0</coordinates></Point>
      </Placemark>
      <Placemark>
        <name>Sukawati Art Market Scooter</name>
        <description><![CDATA[🛵 機車出租<br>🗺️ 近 Sukawati 藝術品市集<br>💰 日租約 Rp 55,000–70,000<br>🕐 每日 08:00–17:00<br>峇里島最大手工藝品批發市場旁<br><a href="https://www.google.com/maps/search/?api=1&query=-8.5720,115.2890" target="_blank" rel="noopener">Google Maps</a>]]></description>
        <Point><coordinates>115.2890,-8.5720,0</coordinates></Point>
      </Placemark>
      <Placemark>
        <name>Keramas Surf Bike Hire</name>
        <description><![CDATA[🛵 機車出租<br>🗺️ 近 Keramas Beach（衝浪競技場）<br>💰 日租約 Rp 60,000–75,000<br>🕐 每日 07:00–18:00<br>WSL 職業賽場地旁<br><a href="https://www.google.com/maps/search/?api=1&query=-8.5950,115.3180" target="_blank" rel="noopener">Google Maps</a>]]></description>
        <Point><coordinates>115.3180,-8.5950,0</coordinates></Point>
      </Placemark>
    </Folder>

    <Folder>
      <name>克隆孔 / 貝薩基 Klungkung &amp; Besakih</name>
      <Placemark>
        <name>Semarapura (Klungkung) Rental</name>
        <description><![CDATA[🛵 機車出租<br>🗺️ Jl. Untung Surapati, Semarapura<br>💰 日租約 Rp 55,000–70,000<br>🕐 每日 08:00–17:00<br>克隆孔縣府所在地，近正義宮<br><a href="https://www.google.com/maps/search/?api=1&query=-8.5380,115.4050" target="_blank" rel="noopener">Google Maps</a>]]></description>
        <Point><coordinates>115.4050,-8.5380,0</coordinates></Point>
      </Placemark>
      <Placemark>
        <name>Besakih Temple Bike Hire</name>
        <description><![CDATA[🛵 機車出租<br>🗺️ 近 Pura Besakih（峇里島母廟）停車場<br>💰 日租約 Rp 60,000–75,000<br>🕐 每日 07:00–17:00<br>峇里島最神聖廟宇旁<br><a href="https://www.google.com/maps/search/?api=1&query=-8.3740,115.4510" target="_blank" rel="noopener">Google Maps</a>]]></description>
        <Point><coordinates>115.4510,-8.3740,0</coordinates></Point>
      </Placemark>
    </Folder>

    <Folder>
      <name>東峇里 Amed / Tulamben / Padangbai / Candidasa / Tirta Gangga</name>
      <Placemark>
        <name>Amed Scooter Rental</name>
        <description><![CDATA[🛵 機車出租<br>🗺️ Jl. Raya Amed<br>💰 日租約 Rp 60,000–80,000<br>🕐 每日 08:00–18:00<br>探索東海岸潛水點必備<br><a href="https://www.google.com/maps/search/?api=1&query=-8.3280,115.6350" target="_blank" rel="noopener">Google Maps</a>]]></description>
        <Point><coordinates>115.6350,-8.3280,0</coordinates></Point>
      </Placemark>
      <Placemark>
        <name>Jemeluk Bay Bike Hire</name>
        <description><![CDATA[🛵 機車出租<br>🗺️ Jemeluk, Amed<br>💰 日租約 Rp 60,000–75,000<br>🕐 每日 07:30–18:00<br>Amed 最熱門浮潛灣旁<br><a href="https://www.google.com/maps/search/?api=1&query=-8.3380,115.6240" target="_blank" rel="noopener">Google Maps</a>]]></description>
        <Point><coordinates>115.6240,-8.3380,0</coordinates></Point>
      </Placemark>
      <Placemark>
        <name>Tulamben Dive &amp; Bike Rental</name>
        <description><![CDATA[🛵 機車出租<br>🗺️ Jl. Raya Singaraja–Amlapura, Tulamben<br>💰 日租約 Rp 60,000–75,000<br>🕐 每日 07:00–18:00<br>沉船潛水點旁<br><a href="https://www.google.com/maps/search/?api=1&query=-8.2990,115.5970" target="_blank" rel="noopener">Google Maps</a>]]></description>
        <Point><coordinates>115.5970,-8.2990,0</coordinates></Point>
      </Placemark>
      <Placemark>
        <name>Tirta Gangga Palace Rental</name>
        <description><![CDATA[🛵 機車出租<br>🗺️ 近 Tirta Gangga 水宮<br>💰 日租約 Rp 60,000–75,000<br>🕐 每日 08:00–17:00<br>東峇里最美皇室水宮旁<br><a href="https://www.google.com/maps/search/?api=1&query=-8.4110,115.5710" target="_blank" rel="noopener">Google Maps</a>]]></description>
        <Point><coordinates>115.5710,-8.4110,0</coordinates></Point>
      </Placemark>
      <Placemark>
        <name>Karangasem / Amlapura Bike Rental</name>
        <description><![CDATA[🛵 機車出租<br>🗺️ Jl. Ngurah Rai, Amlapura<br>💰 日租約 Rp 55,000–70,000<br>🕐 每日 08:00–17:00<br>卡朗阿森縣府，前往 Amed / Tulamben 中途<br><a href="https://www.google.com/maps/search/?api=1&query=-8.4530,115.6090" target="_blank" rel="noopener">Google Maps</a>]]></description>
        <Point><coordinates>115.6090,-8.4530,0</coordinates></Point>
      </Placemark>
      <Placemark>
        <name>Padangbai Ferry Port Scooter</name>
        <description><![CDATA[🛵 機車出租<br>🗺️ Jl. Silayukti, Padangbai<br>💰 日租約 Rp 60,000–75,000<br>🕐 每日 07:00–18:00<br>等渡輪時可短租<br><a href="https://www.google.com/maps/search/?api=1&query=-8.5330,115.5080" target="_blank" rel="noopener">Google Maps</a>]]></description>
        <Point><coordinates>115.5080,-8.5330,0</coordinates></Point>
      </Placemark>
      <Placemark>
        <name>Candidasa Motorbike Rental</name>
        <description><![CDATA[🛵 機車出租<br>🗺️ Jl. Raya Candidasa<br>💰 日租約 Rp 60,000–75,000<br>🕐 每日 08:00–18:00<br>探索東峇里好基地<br><a href="https://www.google.com/maps/search/?api=1&query=-8.5070,115.5600" target="_blank" rel="noopener">Google Maps</a>]]></description>
        <Point><coordinates>115.5600,-8.5070,0</coordinates></Point>
      </Placemark>
    </Folder>

    <Folder>
      <name>北峇里 Lovina / Singaraja / Pemuteran / Air Sanih</name>
      <Placemark>
        <name>Lovina Beach Bike Rental</name>
        <description><![CDATA[🛵 機車出租<br>🗺️ Jl. Raya Lovina, Lovina<br>💰 日租約 Rp 55,000–70,000<br>🕐 每日 08:00–18:00<br>北峇里賞海豚出海前取車<br><a href="https://www.google.com/maps/search/?api=1&query=-8.1580,115.0270" target="_blank" rel="noopener">Google Maps</a>]]></description>
        <Point><coordinates>115.0270,-8.1580,0</coordinates></Point>
      </Placemark>
      <Placemark>
        <name>Singaraja City Scooter Hire</name>
        <description><![CDATA[🛵 機車出租<br>🗺️ Jl. Ahmad Yani, Singaraja<br>💰 日租約 Rp 50,000–65,000<br>🕐 每日 08:00–17:00<br>北峇里首府，租金全島最低<br><a href="https://www.google.com/maps/search/?api=1&query=-8.1108,115.0891" target="_blank" rel="noopener">Google Maps</a>]]></description>
        <Point><coordinates>115.0891,-8.1108,0</coordinates></Point>
      </Placemark>
      <Placemark>
        <name>Pemuteran Motorbike Rental</name>
        <description><![CDATA[🛵 機車出租<br>🗺️ Jl. Raya Pemuteran（西北峇里）<br>💰 日租約 Rp 55,000–70,000<br>🕐 每日 07:30–18:00<br>近 Menjangan 島潛水出發點<br><a href="https://www.google.com/maps/search/?api=1&query=-8.1200,114.6400" target="_blank" rel="noopener">Google Maps</a>]]></description>
        <Point><coordinates>114.6400,-8.1200,0</coordinates></Point>
      </Placemark>
      <Placemark>
        <name>Air Sanih Natural Pool Bike Hire</name>
        <description><![CDATA[🛵 機車出租<br>🗺️ 近 Air Sanih 天然湧泉泳池（新加拉惹東邊）<br>💰 日租約 Rp 55,000–68,000<br>🕐 每日 08:00–17:00<br>北岸公路沿線景點的好起點<br><a href="https://www.google.com/maps/search/?api=1&query=-8.1060,115.2160" target="_blank" rel="noopener">Google Maps</a>]]></description>
        <Point><coordinates>115.2160,-8.1060,0</coordinates></Point>
      </Placemark>
    </Folder>

    <Folder>
      <name>中部高原 Bedugul / Munduk / Pupuan</name>
      <Placemark>
        <name>Bedugul / Candikuning Rental</name>
        <description><![CDATA[🛵 機車出租<br>🗺️ 近布拉坦湖畔（Bedugul/Candikuning）<br>💰 日租約 Rp 60,000–75,000<br>🕐 每日 08:00–17:00<br>高原氣溫涼爽，騎車遊覽湖景超舒適<br><a href="https://www.google.com/maps/search/?api=1&query=-8.2750,115.1670" target="_blank" rel="noopener">Google Maps</a>]]></description>
        <Point><coordinates>115.1670,-8.2750,0</coordinates></Point>
      </Placemark>
      <Placemark>
        <name>Munduk Village Scooter</name>
        <description><![CDATA[🛵 機車出租<br>🗺️ Munduk Village（北部高原）<br>💰 日租約 Rp 55,000–70,000<br>🕐 每日 08:00–17:00<br>瀑布健行後騎車遊覽咖啡莊園<br><a href="https://www.google.com/maps/search/?api=1&query=-8.2580,115.0900" target="_blank" rel="noopener">Google Maps</a>]]></description>
        <Point><coordinates>115.0900,-8.2580,0</coordinates></Point>
      </Placemark>
      <Placemark>
        <name>Pupuan Coffee Village Bike</name>
        <description><![CDATA[🛵 機車出租<br>🗺️ Pupuan, Tabanan（咖啡產區）<br>💰 日租約 Rp 55,000–68,000<br>🕐 每日 08:00–17:00<br>峇里島咖啡種植區騎車遊覽<br><a href="https://www.google.com/maps/search/?api=1&query=-8.3490,115.0260" target="_blank" rel="noopener">Google Maps</a>]]></description>
        <Point><coordinates>115.0260,-8.3490,0</coordinates></Point>
      </Placemark>
    </Folder>

    <Folder>
      <name>藍夢島 Nusa Lembongan</name>
      <Placemark>
        <name>Jungut Batu Port Scooter</name>
        <description><![CDATA[🛵 機車出租<br>🗺️ Jungut Batu Village（快艇碼頭旁）<br>💰 日租約 Rp 75,000–100,000<br>🕐 每日 08:00–18:00<br>下快艇後步行即達，小島全程騎車20分鐘<br><a href="https://www.google.com/maps/search/?api=1&query=-8.6786,115.4490" target="_blank" rel="noopener">Google Maps</a>]]></description>
        <Point><coordinates>115.4490,-8.6786,0</coordinates></Point>
      </Placemark>
      <Placemark>
        <name>Mushroom Bay Bike Hire</name>
        <description><![CDATA[🛵 機車出租<br>🗺️ Mushroom Bay, Nusa Lembongan<br>💰 日租約 Rp 75,000–100,000<br>🕐 每日 08:00–17:00<br>前往 Devil's Tear 懸崖的好起點<br><a href="https://www.google.com/maps/search/?api=1&query=-8.6900,115.4460" target="_blank" rel="noopener">Google Maps</a>]]></description>
        <Point><coordinates>115.4460,-8.6900,0</coordinates></Point>
      </Placemark>
      <Placemark>
        <name>Lembongan Village Rental</name>
        <description><![CDATA[🛵 機車出租<br>🗺️ Lembongan Village（島中心村落）<br>💰 日租約 Rp 75,000–95,000<br>🕐 每日 08:00–18:00<br><a href="https://www.google.com/maps/search/?api=1&query=-8.6830,115.4520" target="_blank" rel="noopener">Google Maps</a>]]></description>
        <Point><coordinates>115.4520,-8.6830,0</coordinates></Point>
      </Placemark>
    </Folder>

    <Folder>
      <name>佩尼達島 Nusa Penida</name>
      <Placemark>
        <name>Sampalan Port Rental</name>
        <description><![CDATA[🛵 機車出租<br>🗺️ Sampalan Port（主要渡輪碼頭旁）<br>💰 日租約 Rp 80,000–110,000<br>🕐 每日 07:00–18:00<br>⚠️ 路況崎嶇，建議選125cc以上自動檔<br><a href="https://www.google.com/maps/search/?api=1&query=-8.7278,115.5090" target="_blank" rel="noopener">Google Maps</a>]]></description>
        <Point><coordinates>115.5090,-8.7278,0</coordinates></Point>
      </Placemark>
      <Placemark>
        <name>Toyapakeh Port Scooter Hire</name>
        <description><![CDATA[🛵 機車出租<br>🗺️ Toyapakeh Port（往藍夢島橋頭碼頭）<br>💰 日租約 Rp 80,000–110,000<br>🕐 每日 07:00–18:00<br>⚠️ 西側路段坡度大，雨天請特別小心<br><a href="https://www.google.com/maps/search/?api=1&query=-8.6950,115.4720" target="_blank" rel="noopener">Google Maps</a>]]></description>
        <Point><coordinates>115.4720,-8.6950,0</coordinates></Point>
      </Placemark>
      <Placemark>
        <name>Penida West Side Scooter</name>
        <description><![CDATA[🛵 機車出租<br>🗺️ 近 Crystal Bay（西側景點區）<br>💰 日租約 Rp 80,000–110,000<br>🕐 每日 07:00–17:00<br>往 Kelingking、Broken Beach 山路陡<br><a href="https://www.google.com/maps/search/?api=1&query=-8.7300,115.4800" target="_blank" rel="noopener">Google Maps</a>]]></description>
        <Point><coordinates>115.4800,-8.7300,0</coordinates></Point>
      </Placemark>
    </Folder>

  </Document>
</kml>
